A_Lat,A_Lon,A_R,A_Sat,B_Lat,B_Lon,B_R,B_Sat,C_Lat,C_Lon,C_R,C_Sat,Roll,Pitch,Yaw,Ax,Ay,Az,Gx,Gy,Gz,Timestamp
24.150247,120.7027505,2.43,5,24.1500505,120.70254083,1.87,5,24.15013083,120.7026215,99.99,0,108.31,28.11,104.05,16.23,28.98,9.05,74.55,133.06,41.55,2025-09-30T13:12:55.748058
24.15024417,120.7027485,2.43,5,24.150051,120.70254033,1.87,5,24.15013083,120.7026215,2.43,3,108.31,26.71,104.05,16.89,28.91,7.03,77.53,132.77,32.30,2025-09-30T13:12:55.952934
24.15024267,120.70274817,2.43,5,24.150051,120.70254017,1.87,5,24.15012817,120.70262617,2.43,3,108.31,26.71,105.46,16.96,28.40,14.93,77.89,130.41,68.57,2025-09-30T13:12:56.156992
24.150241,120.70274717,2.43,5,24.15005117,120.70253983,1.87,5,24.15012817,120.70262617,2.43,3,109.72,26.71,105.46,17.00,29.12,10.84,78.08,133.70,49.76,2025-09-30T13:12:56.358813
24.15023867,120.70274617,2.43,5,24.15005133,120.70253967,1.87,5,24.150129,120.70262017,2.43,3,109.72,25.30,105.46,17.21,29.04,13.93,79.05,133.33,63.94,2025-09-30T13:12:56.561925
24.150237,120.70274533,2.43,5,24.15005133,120.70253933,1.87,5,24.150129,120.70261717,2.43,3,108.31,25.30,106.86,16.44,28.66,16.57,75.50,131.59,76.11,2025-09-30T13:12:56.765276
24.150235,120.702744,2.43,5,24.1500515,120.70253917,1.87,5,24.150129,120.70261717,2.43,3,109.72,21.08,106.86,18.54,29.18,9.41,85.15,134.00,43.20,2025-09-30T13:12:56.968065
24.15023567,120.702745,2.43,5,24.15005167,120.70253867,1.87,5,24.15012967,120.70261433,2.43,3,105.50,22.49,106.86,16.68,27.92,16.85,76.59,128.18,77.39,2025-09-30T13:12:57.171617
24.15023333,120.70274367,2.43,5,24.15005167,120.70253867,1.87,5,24.15012967,120.70261433,2.43,3,104.10,23.90,106.86,17.06,28.59,11.49,78.32,131.30,52.75,2025-09-30T13:12:57.377002
24.150233,120.70274367,2.43,5,24.15005167,120.7025385,1.87,5,24.15013,120.70261333,2.43,3,106.91,25.30,108.27,16.85,29.41,12.65,77.38,135.06,58.07,2025-09-30T13:12:57.582943
24.150218,120.702728,1.51,6,24.150052,120.70253817,1.87,5,24.15013,120.70261333,2.43,3,105.50,25.30,108.27,16.72,27.85,15.35,76.78,127.90,70.47,2025-09-30T13:12:57.789474
24.15020883,120.70271833,1.51,6,24.150052,120.702538,1.87,5,24.15013017,120.702613,2.43,3,104.10,25.30,108.27,17.12,28.89,12.05,78.61,132.66,55.33,2025-09-30T13:12:57.993459
24.15020133,120.70271,1.51,6,24.15005233,120.70253783,1.87,5,24.15013,120.70261317,2.43,3,108.31,28.11,108.27,15.57,30.03,12.48,71.51,137.90,57.30,2025-09-30T13:12:58.197755
24.1501955,120.70270367,1.51,6,24.1500525,120.70253767,1.87,5,24.15013,120.70261317,2.43,3,102.69,40.77,98.43,17.41,20.32,18.30,79.95,93.28,84.03,2025-09-30T13:12:58.402312
24.1501915,120.702699,1.51,6,24.15005233,120.70253767,1.87,5,24.15013,120.70261367,2.43,3,106.91,43.58,95.61,16.48,27.52,16.30,75.67,126.36,74.86,2025-09-30T13:12:58.607478
24.15018967,120.70269733,1.51,6,24.15005283,120.7025375,1.87,5,24.15013,120.70261367,2.43,3,130.81,61.86,97.02,14.04,24.66,20.39,64.47,113.24,93.62,2025-09-30T13:12:58.810580
24.15018767,120.70269567,1.51,6,24.15005283,120.7025375,1.87,5,24.1501305,120.702611,2.43,3,104.10,40.77,99.83,18.38,25.40,16.65,84.39,116.61,76.45,2025-09-30T13:12:59.016043
24.1501855,120.7026935,1.51,6,24.15005283,120.70253733,1.87,5,24.1501305,120.702611,2.43,3,101.28,40.77,99.83,15.96,27.83,18.56,73.28,127.78,85.21,2025-09-30T13:12:59.220266
24.15018383,120.70269183,1.51,6,24.150053,120.70253717,1.87,5,24.15012417,120.70262417,2.43,3,101.28,47.80,101.24,15.87,24.76,19.02,72.89,113.72,87.36,2025-09-30T13:12:59.422802
24.15018117,120.70268917,1.51,6,24.15005317,120.70253683,1.87,5,24.1501325,120.70260417,2.43,3,102.69,44.99,101.24,15.40,28.91,14.20,70.73,132.77,65.19,2025-09-30T13:12:59.826045
24.15018033,120.70268817,1.51,6,24.15005333,120.7025365,1.87,5,24.15013517,120.7025975,2.43,3,163.16,78.74,99.83,18.29,24.65,13.02,84.00,113.17,59.78,2025-09-30T13:13:00.029087
24.15017967,120.70268767,1.51,6,24.15005333,120.7025365,1.87,5,24.150135,120.702597,2.43,3,170.19,73.11,98.43,16.44,19.76,18.62,75.49,90.76,85.50,2025-09-30T13:13:00.231514
24.15017983,120.7026875,1.51,6,24.15005367,120.70253583,1.87,5,24.1501345,120.70259733,2.43,3,189.88,87.18,92.80,18.14,21.71,21.44,83.30,99.71,98.45,2025-09-30T13:13:00.634926
24.1501795,120.702687,1.51,6,24.15005367,120.70253583,1.87,5,24.15013383,120.7025975,2.43,3,136.44,59.05,88.58,21.18,21.88,20.59,97.26,100.48,94.56,2025-09-30T13:13:00.837445
24.1501795,120.702687,1.51,6,24.15005367,120.7025355,1.87,5,24.1501335,120.7025975,2.43,3,157.53,56.24,77.33,19.37,22.45,21.70,88.94,103.10,99.65,2025-09-30T13:13:01.041098
24.15017917,120.70268633,1.51,6,24.15005383,120.70253533,1.87,5,24.1501335,120.7025975,2.43,3,105.50,43.58,54.83,16.72,18.59,18.28,76.80,85.36,83.95,2025-09-30T13:13:01.244633
24.15017917,120.70268617,1.51,6,24.15005383,120.70253533,1.87,5,24.15013133,120.70259983,2.43,3,109.72,64.68,4.21,15.84,28.21,19.18,72.72,129.55,88.08,2025-09-30T13:13:01.448347
24.15017917,120.70268617,1.51,6,24.15005317,120.70253517,1.87,5,24.15013133,120.70259983,2.43,3,97.06,64.68,337.49,14.58,27.99,18.82,66.95,128.52,86.43,2025-09-30T13:13:01.652744
24.150178,120.702685,1.51,6,24.150053,120.702535,1.87,5,24.150133,120.70259483,2.43,3,78.78,54.83,330.46,16.39,30.79,13.74,75.27,141.37,63.09,2025-09-30T13:13:01.856979
24.1501775,120.702684,1.51,6,24.15005283,120.70253483,1.87,5,24.15013367,120.702592,2.43,3,52.06,53.43,323.43,15.22,28.84,12.84,69.88,132.41,58.95,2025-09-30T13:13:02.059318
24.1501775,120.702684,1.51,6,24.1500525,120.70253467,1.87,5,24.15013367,120.702592,2.43,3,40.81,52.02,314.99,16.43,28.12,16.04,75.44,129.12,73.67,2025-09-30T13:13:02.263479
24.15017533,120.702682,1.51,6,24.15005233,120.7025345,1.87,5,24.15013367,120.702592,2.43,3,49.25,50.61,310.77,15.24,28.08,12.95,69.96,128.94,59.48,2025-09-30T13:13:02.468120
24.15017483,120.7026815,1.51,6,24.15005233,120.7025345,1.87,5,24.15013317,120.7025915,2.43,3,97.06,36.55,345.93,15.96,28.90,11.94,73.30,132.72,54.82,2025-09-30T13:13:02.672722
24.15017483,120.7026815,1.51,6,24.1500525,120.70253433,1.87,5,24.15013283,120.70259183,2.43,3,146.28,18.27,35.15,16.72,28.22,12.57,76.78,129.57,57.72,2025-09-30T13:13:02.876996
24.15017317,120.70268,1.51,6,24.15005233,120.70253417,1.87,5,24.15013267,120.70259183,2.43,3,184.25,18.27,75.93,14.31,27.05,11.07,65.70,124.19,50.83,2025-09-30T13:13:03.080523
24.15017267,120.70267983,1.51,6,24.1500525,120.702534,1.87,5,24.15013267,120.70259167,2.43,3,188.47,22.49,95.61,15.51,29.27,18.46,71.21,134.39,84.75,2025-09-30T13:13:03.284131
24.150172,120.702679,1.51,6,24.15005267,120.70253383,1.87,5,24.150132,120.702593,2.43,3,174.41,25.30,101.24,15.94,27.83,13.22,73.19,127.79,60.70,2025-09-30T13:13:03.486670
24.1501705,120.70267767,1.51,6,24.1500525,120.70253367,1.87,5,24.150135,120.70258683,2.43,3,156.13,30.93,102.65,14.86,28.86,11.72,68.24,132.54,53.80,2025-09-30T13:13:03.689467
24.1501705,120.70267767,1.19,6,24.15005267,120.70253333,1.87,5,24.1501355,120.7025855,2.43,3,144.88,29.52,104.05,16.89,28.95,16.77,77.57,132.93,77.00,2025-09-30T13:13:03.894740
24.150169,120.70267667,1.19,6,24.15005267,120.70253317,1.87,5,24.1501355,120.7025855,2.43,3,136.44,36.55,105.46,14.46,28.75,14.89,66.39,132.00,68.36,2025-09-30T13:13:04.099291
24.15016767,120.70267517,1.19,6,24.1500525,120.702533,1.87,5,24.15013767,120.70258033,2.43,3,125.19,39.36,105.46,14.59,27.85,11.47,66.99,127.88,52.68,2025-09-30T13:13:04.304826
24.1501655,120.70267267,1.19,6,24.1500525,120.70253267,1.87,5,24.15013767,120.7025795,2.43,3,122.38,43.58,105.46,14.60,29.58,13.10,67.06,135.81,60.16,2025-09-30T13:13:04.509303
24.15016283,120.70266967,1.19,6,24.15005233,120.70253233,1.87,5,24.150138,120.70257767,2.43,3,119.56,47.80,106.86,14.01,28.76,18.84,64.31,132.07,86.50,2025-09-30T13:13:04.713854
24.15016067,120.70266733,1.19,6,24.15005233,120.702532,1.87,5,24.15013733,120.70257917,2.43,3,116.75,40.77,106.86,17.82,28.76,16.65,81.84,132.05,76.44,2025-09-30T13:13:04.919396
24.15015683,120.702663,1.19,6,24.150052,120.70253183,1.87,5,24.15013733,120.70257883,2.43,3,115.35,46.40,106.86,13.85,28.49,15.76,63.58,130.82,72.36,2025-09-30T13:13:05.123929
24.15015533,120.70266133,1.19,6,24.15005233,120.7025315,1.87,5,24.150137,120.70257867,2.43,3,106.91,49.21,106.86,14.66,23.73,17.26,67.32,108.95,79.26,2025-09-30T13:13:05.328589
24.15015367,120.70265917,1.19,6,24.15005233,120.70253117,1.87,5,24.1501365,120.70257917,2.43,3,115.35,39.36,108.27,17.82,24.22,19.94,81.83,111.20,91.58,2025-09-30T13:13:05.531357
24.15015233,120.70265767,1.19,6,24.1500525,120.70253083,1.87,5,24.15013633,120.70257917,2.43,3,105.50,66.08,109.68,7.93,25.59,13.37,36.40,117.50,61.38,2025-09-30T13:13:05.734378
24.15015133,120.70265633,1.19,6,24.15005317,120.70253033,1.87,5,24.150136,120.70257967,2.43,3,116.75,30.93,109.68,19.08,27.30,25.70,87.64,125.38,118.01,2025-09-30T13:13:05.936900
24.15015017,120.70265517,1.19,6,24.1500535,120.70253,1.87,5,24.15013533,120.7025805,2.43,3,125.19,46.40,109.68,24.19,20.05,19.22,111.06,92.06,88.26,2025-09-30T13:13:06.140617
24.15014933,120.70265417,1.19,6,24.1500535,120.70252983,1.87,5,24.15013533,120.7025805,2.43,3,64.72,42.18,109.68,23.30,17.76,11.31,106.98,81.53,51.95,2025-09-30T13:13:06.342703
24.1501485,120.70265317,1.19,6,24.15005333,120.70252967,1.87,5,24.15013567,120.70257983,2.43,3,77.38,46.40,108.27,14.90,23.31,25.10,68.43,107.05,115.24,2025-09-30T13:13:06.545428
24.15014767,120.70265217,1.19,6,24.15005333,120.7025295,1.87,5,24.150136,120.70257833,2.43,3,56.28,46.40,109.68,25.43,18.23,18.15,116.75,83.69,83.36,2025-09-30T13:13:06.747870
24.150147,120.702651,1.19,6,24.15005317,120.7025295,1.87,5,24.15013683,120.702577,2.43,3,59.10,21.08,108.27,27.18,20.19,22.33,124.83,92.72,102.53,2025-09-30T13:13:06.951621
24.15014633,120.70265017,1.19,6,24.15005317,120.70252917,1.87,5,24.15013683,120.702577,2.43,3,39.41,57.65,109.68,18.02,19.03,21.00,82.74,87.38,96.41,2025-09-30T13:13:07.153556
24.15014567,120.702649,1.19,6,24.15005367,120.70252883,1.87,5,24.15013767,120.70257533,2.43,3,46.44,26.71,109.68,24.57,25.94,17.46,112.84,119.12,80.15,2025-09-30T13:13:07.355912
24.150145,120.70264817,1.19,6,24.1500535,120.70252867,1.87,5,24.15013767,120.70257533,2.43,3,23.94,43.58,111.08,10.93,17.65,17.81,50.21,81.02,81.79,2025-09-30T13:13:07.559384
24.15014467,120.7026475,1.19,6,24.15005283,120.7025285,1.87,5,24.15013783,120.70257517,2.43,3,30.97,19.68,111.08,23.05,24.77,22.66,105.83,113.75,104.06,2025-09-30T13:13:07.762150
24.15014433,120.7026465,1.19,6,24.15005267,120.70252833,1.87,5,24.15013817,120.702575,2.43,3,23.94,30.93,111.08,13.48,20.21,15.92,61.91,92.80,73.09,2025-09-30T13:13:08.165335
24.15014417,120.7026465,1.19,6,24.15005217,120.70252817,1.87,5,24.15013817,120.702575,2.43,3,25.35,25.30,111.08,18.68,23.10,19.30,85.78,106.09,88.64,2025-09-30T13:13:08.368580
24.15014417,120.7026465,1.19,6,24.15005167,120.70252817,1.87,5,24.15013783,120.70257533,2.43,3,22.53,23.90,111.08,17.26,21.88,18.71,79.28,100.48,85.92,2025-09-30T13:13:08.572601
24.15014417,120.70264617,1.19,6,24.15005167,120.70252817,1.87,5,24.15013783,120.70257533,2.43,3,16.91,29.52,112.49,15.65,20.70,19.89,71.86,95.03,91.33,2025-09-30T13:13:08.776488
24.150144,120.70264567,1.19,6,24.15005067,120.70252817,1.87,5,24.150138,120.70257517,2.43,3,23.94,21.08,112.49,18.96,23.77,16.63,87.06,109.13,76.35,2025-09-30T13:13:08.980349
24.15014367,120.70264517,1.19,6,24.15005,120.70252817,1.87,5,24.150138,120.70257517,2.43,3,16.91,29.52,112.49,14.67,20.64,18.08,67.34,94.78,83.02,2025-09-30T13:13:09.183429
24.15014333,120.70264467,1.19,6,24.15005,120.70252817,1.87,5,24.150138,120.70257533,2.43,3,21.13,26.71,112.49,17.90,23.09,13.93,82.19,106.02,63.96,2025-09-30T13:13:09.386622
24.15014317,120.70264483,1.19,6,24.15004917,120.70252833,1.87,5,24.150138,120.70257533,2.43,3,9.88,35.15,112.49,13.54,18.57,9.16,62.19,85.26,42.08,2025-09-30T13:13:09.590147
24.15014317,120.70264483,1.19,6,24.1500485,120.7025285,1.87,5,24.150138,120.7025755,2.43,3,21.13,18.27,112.49,18.59,17.30,22.20,85.37,79.46,101.93,2025-09-30T13:13:09.793042
24.150143,120.70264433,1.19,6,24.15004817,120.7025285,1.87,5,24.15013867,120.70257517,2.43,3,18.31,25.30,113.90,17.30,20.48,19.21,79.43,94.03,88.22,2025-09-30T13:13:09.996357
24.15014267,120.70264367,1.19,6,24.15004683,120.70252883,1.87,5,24.15013883,120.7025755,2.43,3,14.10,25.30,113.90,18.36,21.91,20.85,84.32,100.62,95.72,2025-09-30T13:13:10.198984
24.1501425,120.70264333,1.19,6,24.15004667,120.70252883,1.87,5,24.15013883,120.7025755,2.43,3,12.69,25.30,113.90,19.62,20.99,17.98,90.09,96.40,82.58,2025-09-30T13:13:10.402307
24.15014217,120.70264267,1.19,6,24.15004667,120.70252867,1.87,5,24.150139,120.70257517,2.43,3,11.28,26.71,113.90,16.52,21.30,22.14,75.85,97.81,101.68,2025-09-30T13:13:10.604946
24.15014183,120.702642,1.19,6,24.15004717,120.70252833,1.87,5,24.150139,120.702575,2.43,3,12.69,18.27,113.90,18.71,21.79,17.12,85.90,100.04,78.62,2025-09-30T13:13:10.807980
24.15014133,120.7026415,1.19,6,24.15004767,120.70252833,1.87,5,24.15013917,120.70257483,2.43,3,12.69,22.49,113.90,16.51,21.49,16.73,75.80,98.70,76.82,2025-09-30T13:13:11.010069
24.15014117,120.702641,1.19,6,24.15004817,120.70252783,1.87,5,24.1501395,120.70257483,2.43,3,15.50,16.86,113.90,19.25,21.97,18.26,88.40,100.90,83.82,2025-09-30T13:13:11.213183
24.15014083,120.70264067,1.19,6,24.1500485,120.70252783,1.87,5,24.15013967,120.702575,2.43,3,11.28,19.68,115.30,16.08,20.09,19.06,73.84,92.27,87.53,2025-09-30T13:13:11.416325
24.15014033,120.70264033,1.19,6,24.15004817,120.70252783,1.87,5,24.15013967,120.702575,2.43,3,9.88,21.08,115.30,16.79,21.38,16.55,77.10,98.16,76.00,2025-09-30T13:13:11.619414
24.15014017,120.70264,1.19,6,24.15004867,120.70252767,1.87,5,24.15014033,120.70257383,2.43,3,11.28,22.49,115.30,16.23,21.97,20.36,74.55,100.89,93.49,2025-09-30T13:13:11.821888
24.15014,120.7026395,1.19,6,24.15004883,120.7025275,1.87,5,24.15014067,120.70257417,2.44,3,12.69,23.90,115.30,16.92,21.53,16.51,77.71,98.84,75.79,2025-09-30T13:13:12.026133
24.15013983,120.70263933,1.19,6,24.150049,120.70252733,1.87,5,24.15014117,120.70257433,2.44,3,14.10,19.68,115.30,17.78,22.10,15.06,81.65,101.50,69.16,2025-09-30T13:13:12.229492
24.15013983,120.70263883,1.19,6,24.150049,120.70252733,1.87,5,24.15014133,120.70257467,2.44,3,11.28,22.49,115.30,16.54,20.75,20.55,75.97,95.29,94.37,2025-09-30T13:13:12.433143
24.15013967,120.70263867,1.19,6,24.15004917,120.70252733,1.87,5,24.15014167,120.70257433,2.44,3,16.91,28.11,115.30,16.84,21.74,18.02,77.32,99.81,82.73,2025-09-30T13:13:12.636690
24.15013967,120.7026385,1.19,6,24.1500495,120.702527,1.87,5,24.15014167,120.70257467,2.44,3,23.94,29.52,111.08,19.22,18.83,19.52,88.28,86.45,89.62,2025-09-30T13:13:12.839675
24.1501395,120.70263833,1.19,6,24.15004967,120.70252683,1.87,5,24.15014183,120.7025745,2.44,3,46.44,44.99,105.46,14.80,18.67,17.53,67.98,85.71,80.48,2025-09-30T13:13:13.041886
24.15013917,120.70263817,1.19,6,24.1500525,120.70252583,1.87,5,24.150142,120.70257417,2.44,3,66.13,54.83,101.24,14.03,26.08,20.78,64.43,119.77,95.40,2025-09-30T13:13:13.244952
24.15013933,120.702638,1.19,6,24.150055,120.70252483,1.87,5,24.150142,120.70257417,2.44,3,74.56,57.65,101.24,14.73,26.65,18.25,67.62,122.36,83.79,2025-09-30T13:13:13.448242
24.15013933,120.702638,1.19,6,24.15005533,120.70252467,1.87,5,24.15014183,120.7025735,2.44,3,75.97,57.65,101.24,14.49,26.90,17.05,66.53,123.51,78.27,2025-09-30T13:13:13.651391
24.15013933,120.70263817,1.19,6,24.1500565,120.70252417,1.87,5,24.15014133,120.70257317,2.44,3,81.60,61.86,99.83,12.98,27.73,13.96,59.59,127.35,64.08,2025-09-30T13:13:13.854390
24.15013933,120.70263817,1.19,6,24.15005767,120.70252367,1.87,5,24.1501415,120.702573,2.44,3,85.81,56.24,99.83,16.15,28.07,12.10,74.14,128.90,55.58,2025-09-30T13:13:14.057909
24.15013917,120.702638,1.19,6,24.150058,120.70252333,1.87,5,24.1501415,120.702573,2.44,3,88.63,56.24,99.83,13.84,28.16,10.58,63.57,129.33,48.56,2025-09-30T13:13:14.260917
24.15013917,120.702638,1.19,6,24.15005833,120.70252317,1.87,5,24.150142,120.70257267,2.44,3,75.97,49.21,98.43,16.05,25.54,15.73,73.71,117.29,72.23,2025-09-30T13:13:14.467999
24.150139,120.70263783,1.19,6,24.15005817,120.702523,1.87,5,24.1501425,120.70257217,2.44,3,63.31,49.21,97.02,14.75,24.18,17.68,67.71,111.03,81.17,2025-09-30T13:13:14.671032
24.15013883,120.70263767,1.19,6,24.1500585,120.70252267,1.87,5,24.1501435,120.70257217,2.44,3,61.91,42.18,97.02,17.42,23.85,23.15,80.00,109.51,106.31,2025-09-30T13:13:14.873696
24.15013867,120.7026375,1.19,6,24.15005833,120.7025225,1.87,5,24.150144,120.70257183,2.44,3,70.35,43.58,95.61,16.26,20.97,19.26,74.67,96.28,88.43,2025-09-30T13:13:15.076581
24.15013817,120.70263683,1.19,6,24.15005883,120.702522,1.87,5,24.150144,120.70257283,2.44,3,53.47,40.77,98.43,17.28,20.86,21.07,79.36,95.79,96.76,2025-09-30T13:13:15.480864
24.15013817,120.70263683,1.19,6,24.15005883,120.70252183,1.87,5,24.15014383,120.70257317,2.44,3,39.41,40.77,98.43,16.73,21.98,22.77,76.81,100.93,104.57,2025-09-30T13:13:15.683173
24.150138,120.7026365,1.19,6,24.15005883,120.70252167,1.87,5,24.1501445,120.702573,2.44,3,28.16,42.18,95.61,16.35,22.92,15.44,75.06,105.26,70.89,2025-09-30T13:13:15.886081
24.15013767,120.70263633,1.19,6,24.15005867,120.7025215,1.87,5,24.15014467,120.702573,2.44,3,2.85,49.21,97.02,15.95,22.72,19.50,73.23,104.33,89.52,2025-09-30T13:13:16.089320
24.15013733,120.70263583,1.19,6,24.15005867,120.70252133,1.87,5,24.15014517,120.702573,2.44,3,350.19,44.98,95.61,18.50,22.53,20.42,84.93,103.45,93.79,2025-09-30T13:13:16.291708
24.15013683,120.70263533,1.19,6,24.15005883,120.70252083,1.87,5,24.15014583,120.70257333,2.44,3,22.53,42.18,130.77,16.26,22.40,17.86,74.65,102.87,82.01,2025-09-30T13:13:16.695168
24.15013667,120.702635,1.19,6,24.15005883,120.7025205,1.87,5,24.15014667,120.70257267,2.44,3,81.60,29.52,219.36,17.19,22.59,18.44,78.94,103.71,84.67,2025-09-30T13:13:16.897732
24.15013667,120.702635,1.19,6,24.1500585,120.7025205,1.87,5,24.15014667,120.7025735,2.44,3,116.75,21.08,289.68,17.29,20.56,14.24,79.40,94.40,65.39,2025-09-30T13:13:17.100400
24.15013667,120.70263483,1.19,6,24.15005817,120.70252033,1.87,5,24.1501475,120.70257333,2.44,3,132.22,18.27,9.83,17.37,18.61,18.22,79.77,85.47,83.65,2025-09-30T13:13:17.303493
24.1501365,120.70263433,1.19,6,24.15005783,120.70252017,1.87,5,24.15014833,120.70257333,2.44,3,128.00,18.27,52.02,16.65,22.41,19.31,76.45,102.88,88.67,2025-09-30T13:13:17.506563
24.1501365,120.70263383,1.19,6,24.15005783,120.70252,1.87,5,24.15014883,120.7025735,2.44,3,113.94,19.68,73.11,17.17,21.26,15.56,78.85,97.63,71.43,2025-09-30T13:13:17.709685
24.1501365,120.70263383,1.19,6,24.150057,120.70252,1.87,5,24.15014917,120.70257333,2.44,3,92.85,19.68,78.74,17.49,21.40,23.89,80.29,98.26,109.72,2025-09-30T13:13:17.913164
24.15013633,120.7026335,1.19,6,24.150057,120.70252,1.87,5,24.15014933,120.70257317,2.44,3,75.97,21.08,80.15,17.46,21.83,21.85,80.15,100.25,100.33,2025-09-30T13:13:18.115710
24.15013633,120.70263383,1.19,6,24.15005683,120.70252017,1.87,5,24.1501485,120.70257317,2.44,3,60.50,22.49,82.96,16.72,21.48,14.15,76.80,98.63,64.96,2025-09-30T13:13:18.318431
24.1501365,120.70263467,1.19,6,24.15005633,120.7025205,1.87,5,24.1501475,120.7025725,2.44,3,50.66,22.49,85.77,17.61,21.74,14.70,80.88,99.83,67.48,2025-09-30T13:13:18.721984
24.15013633,120.70263433,1.19,6,24.150056,120.70252083,1.87,5,24.1501475,120.7025725,2.44,3,39.41,21.08,87.18,17.63,21.92,18.13,80.95,100.66,83.26,2025-09-30T13:13:18.925061
24.15013667,120.70263467,1.19,6,24.1500555,120.7025205,1.87,5,24.150147,120.70257217,2.44,3,33.78,22.49,88.58,17.42,21.66,13.40,80.00,99.46,61.54,2025-09-30T13:13:19.128087
24.1501365,120.70263433,1.19,6,24.15005533,120.7025205,1.87,5,24.15014633,120.702573,2.44,3,29.56,22.49,89.99,17.39,21.61,18.47,79.84,99.21,84.81,2025-09-30T13:13:19.331374
24.150136,120.70263417,1.19,6,24.15005483,120.7025205,1.87,5,24.15014633,120.702573,2.44,3,26.75,22.49,89.99,16.99,21.40,20.35,78.01,98.29,93.44,2025-09-30T13:13:19.534537
24.150136,120.70263417,1.19,6,24.15005433,120.70252083,1.87,5,24.1501465,120.70257183,2.44,3,25.35,26.71,92.80,15.69,21.57,12.80,72.07,99.06,58.78,2025-09-30T13:13:19.737709
24.15013583,120.70263367,1.19,6,24.15005417,120.70252117,1.87,5,24.1501465,120.70257183,2.44,3,23.94,28.11,92.80,16.43,22.00,18.53,75.46,101.02,85.11,2025-09-30T13:13:19.939977
24.15013533,120.70263367,1.19,6,24.15005367,120.70252133,1.87,5,24.150147,120.702572,2.44,3,22.53,28.11,95.61,17.04,21.74,22.31,78.23,99.82,102.45,2025-09-30T13:13:20.142866
24.150135,120.70263317,1.19,6,24.1500535,120.70252133,1.87,5,24.15014733,120.70257233,2.44,3,22.53,28.11,97.02,16.79,22.14,15.10,77.12,101.64,69.32,2025-09-30T13:13:20.345972
24.15013433,120.7026325,1.19,6,24.15005333,120.7025215,1.87,5,24.15014733,120.70257183,2.44,3,22.53,26.71,98.43,17.28,21.65,20.86,79.33,99.40,95.77,2025-09-30T13:13:20.548887
24.15013433,120.70263217,1.27,5,24.15005317,120.70252133,1.87,5,24.15014683,120.70257233,2.44,3,19.72,25.30,99.83,17.13,20.92,21.44,78.64,96.06,98.45,2025-09-30T13:13:20.751521
24.15013417,120.702632,1.27,5,24.15005317,120.70252133,1.87,5,24.1501465,120.70257283,2.44,3,18.31,22.49,101.24,17.28,20.18,18.38,79.33,92.66,84.39,2025-09-30T13:13:20.953747
24.150134,120.7026315,1.27,5,24.15005317,120.7025215,1.87,5,24.1501465,120.70257267,2.44,3,23.94,28.11,101.24,14.21,22.75,26.45,65.24,104.48,121.45,2025-09-30T13:13:21.156444
24.150134,120.702631,1.27,5,24.15005367,120.702522,1.87,5,24.1501465,120.70257267,2.44,3,18.31,23.90,101.24,17.95,20.27,13.30,82.42,93.06,61.08,2025-09-30T13:13:21.359577
24.1501335,120.702631,1.27,5,24.15005317,120.70252167,1.87,5,24.1501475,120.70257267,2.44,3,25.35,25.30,101.24,15.93,24.00,17.86,73.16,110.20,82.01,2025-09-30T13:13:21.561964
24.15013333,120.70263033,1.27,5,24.150053,120.70252167,1.87,5,24.15014783,120.70257317,2.44,3,26.75,22.49,102.65,18.30,22.35,19.82,84.04,102.61,91.00,2025-09-30T13:13:21.765354
24.150133,120.70263017,1.27,5,24.15005267,120.70252183,1.51,6,24.15014783,120.70257317,2.44,3,25.35,26.71,102.65,15.70,21.88,20.61,72.08,100.46,94.66,2025-09-30T13:13:21.967818
24.15013283,120.70263,1.27,5,24.15005233,120.70252167,1.51,6,24.15014767,120.702573,2.44,3,29.56,23.90,102.65,17.65,24.41,16.91,81.04,112.11,77.64,2025-09-30T13:13:22.170477
24.15013267,120.70262983,1.27,5,24.15005233,120.70252167,1.51,6,24.15014783,120.70257317,2.44,3,29.56,26.71,102.65,15.52,22.53,19.82,71.25,103.47,91.01,2025-09-30T13:13:22.374132
24.15013217,120.70262983,1.27,5,24.15005217,120.70252167,1.51,6,24.150148,120.702573,2.44,3,29.56,25.30,104.05,16.99,23.05,17.33,78.01,105.85,79.56,2025-09-30T13:13:22.576578
24.15013183,120.7026295,1.27,5,24.15005183,120.70252183,1.51,6,24.15014833,120.702573,2.44,3,26.75,25.30,104.05,16.62,21.98,21.93,76.33,100.93,100.71,2025-09-30T13:13:22.779754
24.1501315,120.7026295,1.27,5,24.15005167,120.70252167,1.51,6,24.150148,120.70257267,2.44,3,26.75,26.71,104.05,16.56,22.74,20.68,76.02,104.43,94.97,2025-09-30T13:13:22.982438
24.15013117,120.70262933,1.27,5,24.1500515,120.70252167,1.51,6,24.150148,120.70257267,2.44,3,29.56,22.49,105.46,18.02,22.98,12.96,82.74,105.51,59.50,2025-09-30T13:13:23.185109
24.15013117,120.70262933,1.27,5,24.15005117,120.70252167,1.51,6,24.15014767,120.70257267,2.44,3,29.56,25.30,105.46,15.86,22.84,13.77,72.81,104.87,63.22,2025-09-30T13:13:23.389192
24.15013117,120.70262933,1.27,5,24.15005117,120.70252167,1.51,6,24.1501475,120.70257267,2.44,3,32.38,23.90,105.46,17.09,23.34,20.72,78.47,107.16,95.14,2025-09-30T13:13:23.591708
24.15013017,120.70262883,1.27,5,24.15005067,120.7025215,1.51,6,24.1501475,120.7025725,2.44,3,26.75,23.90,105.46,16.87,21.97,19.61,77.48,100.87,90.07,2025-09-30T13:13:23.994964
24.15013,120.70262883,1.27,5,24.1500505,120.7025215,1.51,6,24.15014767,120.70257233,2.44,3,28.16,23.90,105.46,17.01,23.41,19.91,78.12,107.49,91.44,2025-09-30T13:13:24.197895
24.15012967,120.70262867,1.27,5,24.1500505,120.7025215,1.51,6,24.1501475,120.70257183,2.44,3,29.56,25.30,106.86,16.38,22.24,18.34,75.21,102.13,84.19,2025-09-30T13:13:24.400414
24.15012933,120.70262883,1.19,6,24.15005017,120.70252133,1.51,6,24.1501475,120.70257167,2.44,3,30.97,23.90,106.86,17.29,23.01,14.13,79.40,105.65,64.86,2025-09-30T13:13:24.603659
24.15012917,120.70262867,1.27,5,24.15005,120.702521,1.51,6,24.1501475,120.7025715,2.44,3,29.56,23.90,106.86,17.17,22.24,16.39,78.86,102.13,75.27,2025-09-30T13:13:25.006859
24.15012917,120.70262817,1.27,5,24.15004983,120.70252117,1.51,6,24.150148,120.70257133,2.44,3,30.97,25.30,108.27,16.55,23.25,17.98,75.99,106.77,82.56,2025-09-30T13:13:25.209645
24.15012867,120.70262833,1.27,5,24.15004967,120.70252117,1.51,6,24.1501475,120.70257167,2.44,3,32.38,25.30,108.27,17.20,23.09,20.47,78.99,106.03,94.01,2025-09-30T13:13:25.412329
24.15012867,120.702628,1.27,5,24.15004983,120.7025215,1.51,6,24.1501475,120.70257167,2.44,3,30.97,23.90,108.27,17.15,23.09,20.47,78.74,106.03,94.01,2025-09-30T13:13:25.615335
24.15012867,120.70262817,1.19,6,24.15004983,120.70252133,1.51,6,24.15014733,120.7025715,2.44,3,33.78,22.49,109.68,17.21,23.09,18.26,79.02,106.05,83.84,2025-09-30T13:13:25.818420
24.1501285,120.70262767,1.19,6,24.15005,120.70252183,1.51,6,24.15014733,120.70257133,2.44,3,30.97,22.49,109.68,16.75,22.44,23.70,76.91,103.06,108.82,2025-09-30T13:13:26.020500
24.1501285,120.70262767,1.19,6,24.15004967,120.7025215,1.51,6,24.15014717,120.70257133,2.44,3,30.97,22.49,109.68,17.54,22.97,21.88,80.54,105.47,100.48,2025-09-30T13:13:26.224018
24.15012817,120.70262767,1.19,6,24.15004967,120.70252183,1.51,6,24.15014667,120.70257133,2.44,3,29.56,22.49,109.68,16.84,22.74,16.00,77.31,104.40,73.47,2025-09-30T13:13:26.426812
24.150128,120.7026275,1.19,6,24.1500495,120.70252183,1.51,6,24.15014633,120.70257117,2.44,3,32.38,21.08,109.68,17.79,23.64,19.49,81.71,108.53,89.48,2025-09-30T13:13:26.630834
24.150128,120.7026275,1.19,6,24.15004933,120.70252167,1.51,6,24.150146,120.70257117,2.44,3,32.38,22.49,109.68,16.77,23.28,16.39,77.00,106.91,75.26,2025-09-30T13:13:27.033316
24.15012733,120.702627,1.19,6,24.15004933,120.70252167,1.51,6,24.150146,120.702571,2.44,3,30.97,25.30,109.68,16.11,22.43,23.64,73.95,102.99,108.57,2025-09-30T13:13:27.235458
24.15012733,120.702627,1.19,6,24.15004933,120.7025215,1.51,6,24.15014533,120.70257033,2.44,3,28.16,22.49,111.08,17.79,22.06,18.67,81.67,101.31,85.74,2025-09-30T13:13:27.438200
24.1501275,120.702627,1.19,6,24.15004933,120.70252167,1.51,6,24.15014533,120.70257033,2.44,3,32.38,22.49,111.08,16.99,23.20,18.94,78.01,106.55,86.95,2025-09-30T13:13:27.640721
24.15012717,120.702627,1.19,6,24.150049,120.7025215,1.51,6,24.1501455,120.70257,2.44,3,26.75,25.30,108.27,16.53,22.68,20.18,75.90,104.14,92.66,2025-09-30T13:13:27.843600
24.15012717,120.7026265,1.19,6,24.150049,120.70252133,1.51,6,24.1501455,120.70257,2.44,3,18.31,28.11,99.83,16.38,23.81,12.66,75.21,109.33,58.12,2025-09-30T13:13:28.046095
24.15012717,120.7026265,1.19,6,24.15004883,120.702521,1.51,6,24.150146,120.70256933,2.44,3,358.63,29.51,94.21,16.89,23.81,19.85,77.55,109.32,91.17,2025-09-30T13:13:28.248742
24.15012733,120.70262667,1.19,6,24.1500485,120.70252117,1.51,6,24.15014617,120.702569,2.44,3,330.50,37.95,87.18,15.60,22.43,17.57,71.63,102.98,80.66,2025-09-30T13:13:28.451409
24.150127,120.7026265,1.19,6,24.15004867,120.702521,1.51,6,24.15014617,120.702569,2.44,3,312.22,37.95,77.33,17.12,22.48,25.42,78.61,103.22,116.71,2025-09-30T13:13:28.654488
24.15012667,120.70262617,1.19,6,24.15004867,120.702521,1.51,6,24.15014617,120.70256867,2.44,3,313.63,42.17,70.30,15.93,22.67,15.44,73.14,104.10,70.88,2025-09-30T13:13:28.857006
24.15012683,120.70262583,1.19,6,24.1500485,120.702521,1.51,6,24.15014633,120.7025685,2.44,3,11.28,29.52,116.71,16.29,22.35,21.11,74.80,102.64,96.95,2025-09-30T13:13:29.060558
24.15012683,120.7026255,1.19,6,24.15004883,120.70252117,1.51,6,24.15014667,120.702568,2.44,3,67.53,12.65,185.61,16.88,22.60,15.07,77.50,103.78,69.22,2025-09-30T13:13:29.264299
24.1501265,120.702625,1.19,6,24.15004883,120.70252083,1.51,6,24.1501465,120.70256817,2.44,3,102.69,4.21,237.65,16.83,22.52,11.92,77.27,103.41,54.73,2025-09-30T13:13:29.468350
24.1501265,120.702625,1.19,6,24.15004883,120.70252083,1.51,6,24.1501465,120.70256817,2.44,3,119.56,358.58,296.70,16.69,22.47,14.27,76.64,103.19,65.53,2025-09-30T13:13:29.672426
24.15012667,120.702625,1.19,6,24.15004867,120.70252033,1.51,6,24.150147,120.70256783,2.44,3,102.69,4.21,299.52,16.25,24.30,22.42,74.60,111.58,102.94,2025-09-30T13:13:29.874952
24.150127,120.70262383,1.19,6,24.15004883,120.70252017,1.51,6,24.15014683,120.702568,2.44,3,85.81,9.83,302.33,16.23,24.11,19.05,74.53,110.71,87.50,2025-09-30T13:13:30.078107
24.15012667,120.70262367,1.19,6,24.150049,120.70251967,1.51,6,24.15014733,120.7025675,2.44,3,63.31,12.65,302.33,17.02,20.13,13.25,78.16,92.44,60.84,2025-09-30T13:13:30.280728
24.15012667,120.70262367,1.19,6,24.150049,120.70251983,1.51,6,24.150147,120.702568,2.44,3,57.69,12.65,302.33,18.20,24.14,20.65,83.58,110.86,94.83,2025-09-30T13:13:30.485023
24.15012683,120.70262267,1.19,6,24.150049,120.70251933,1.51,6,24.150147,120.702568,2.44,3,49.25,19.68,303.74,14.36,21.87,16.95,65.96,100.40,77.83,2025-09-30T13:13:30.687487
24.15012667,120.70262283,1.19,6,24.15004867,120.702519,1.51,6,24.1501475,120.702568,2.44,3,42.22,18.27,303.74,17.77,20.57,26.47,81.60,94.46,121.57,2025-09-30T13:13:30.890004
24.15012633,120.70262267,1.19,6,24.15004883,120.70251933,1.51,6,24.1501475,120.702568,2.44,3,39.41,21.08,303.74,15.54,21.14,15.64,71.38,97.08,71.81,2025-09-30T13:13:31.092969
24.15012617,120.7026225,1.19,6,24.1500485,120.702519,1.51,6,24.15014767,120.70256783,2.44,3,35.19,23.90,305.15,15.93,20.86,16.76,73.13,95.79,76.95,2025-09-30T13:13:31.297009
24.150126,120.70262217,1.19,6,24.15004867,120.70251933,1.51,6,24.15014783,120.70256767,2.44,3,33.78,26.71,305.15,15.93,21.56,15.96,73.13,99.00,73.27,2025-09-30T13:13:31.500134
24.15012567,120.70262183,1.19,6,24.15004883,120.7025195,1.51,6,24.15014783,120.70256767,2.44,3,28.16,23.90,305.15,17.70,20.40,23.29,81.28,93.68,106.93,2025-09-30T13:13:31.702586
24.15012533,120.7026215,1.19,6,24.15004883,120.70251933,1.51,6,24.150148,120.70256817,2.44,3,22.53,29.52,305.15,13.61,19.94,18.81,62.51,91.57,86.37,2025-09-30T13:13:31.904978
24.15012533,120.7026215,1.19,6,24.15004867,120.702519,1.51,6,24.15014817,120.70256833,2.44,3,28.16,26.71,306.55,18.05,23.54,17.32,82.89,108.11,79.51,2025-09-30T13:13:32.107791
24.15012517,120.7026215,1.19,6,24.15004867,120.702519,1.51,6,24.1501485,120.70256867,2.44,3,23.94,32.33,307.96,15.42,20.62,20.61,70.79,94.68,94.64,2025-09-30T13:13:32.310426
24.15012517,120.70262133,1.19,6,24.150049,120.70251867,1.51,6,24.15014833,120.7025685,2.44,3,25.35,26.71,309.36,18.03,22.22,23.54,82.77,102.05,108.09,2025-09-30T13:13:32.513247
24.15012517,120.702621,1.19,6,24.1500485,120.70251883,1.51,6,24.1501485,120.70256867,2.44,3,21.13,32.33,309.36,15.47,20.85,15.82,71.05,95.75,72.63,2025-09-30T13:13:32.715693
24.15012517,120.702621,1.19,6,24.1500485,120.7025185,1.51,6,24.1501485,120.70256867,2.44,3,22.53,26.71,309.36,17.51,23.32,19.97,80.40,107.07,91.68,2025-09-30T13:13:32.921222
24.1501255,120.70262017,1.19,6,24.1500485,120.7025185,1.51,6,24.15014833,120.70256833,2.44,3,18.31,25.30,309.36,17.07,21.09,13.66,78.39,96.84,62.70,2025-09-30T13:13:33.124421
24.15012517,120.70262033,1.19,6,24.15004833,120.70251833,1.51,6,24.15014733,120.70256833,2.44,3,18.31,26.71,309.36,16.21,22.55,23.46,74.42,103.55,107.72,2025-09-30T13:13:33.327100
24.15012467,120.70262083,1.19,6,24.15004833,120.7025185,1.51,6,24.15014733,120.702568,2.44,3,18.31,23.90,310.77,17.45,21.50,19.19,80.11,98.72,88.14,2025-09-30T13:13:33.529900
24.15012467,120.702621,1.19,6,24.15004817,120.70251817,1.51,6,24.15014733,120.702568,2.44,3,18.31,26.71,312.18,15.95,21.26,11.97,73.24,97.61,54.95,2025-09-30T13:13:33.733177
24.15012467,120.7026205,1.27,5,24.15004817,120.70251817,1.51,6,24.15014683,120.70256783,2.44,3,16.91,25.30,312.18,17.05,21.63,14.96,78.29,99.34,68.69,2025-09-30T13:13:33.935445
24.15012483,120.70262,1.27,5,24.15004817,120.70251817,1.51,6,24.1501465,120.7025675,2.44,3,18.31,28.11,312.18,16.24,21.91,19.23,74.55,100.60,88.28,2025-09-30T13:13:34.137628
24.150125,120.70261983,1.27,5,24.150048,120.70251783,1.51,6,24.1501455,120.7025675,2.44,3,18.31,25.30,312.18,17.46,22.25,15.55,80.19,102.19,71.39,2025-09-30T13:13:34.340973
24.15012483,120.7026195,1.27,5,24.15004783,120.7025175,1.51,6,24.15014467,120.70256767,2.44,3,16.91,23.90,312.18,17.28,21.57,23.52,79.35,99.05,107.98,2025-09-30T13:13:34.544671
24.15012483,120.70261933,1.27,5,24.15004783,120.7025175,1.51,6,24.15014467,120.70256767,2.44,3,16.91,23.90,313.58,16.95,21.78,19.79,77.82,100.01,90.86,2025-09-30T13:13:34.747675
24.15012467,120.702619,1.27,5,24.15004783,120.7025175,1.51,6,24.1501445,120.70256767,2.44,3,16.91,22.49,313.58,17.95,21.35,18.77,82.44,98.02,86.20,2025-09-30T13:13:34.950356
24.15012467,120.702619,1.27,5,24.15004783,120.7025175,1.51,6,24.1501435,120.70256733,2.44,3,15.50,23.90,313.58,16.72,21.39,22.75,76.79,98.21,104.48,2025-09-30T13:13:35.153316
24.15012467,120.702619,1.27,5,24.15004783,120.70251717,1.51,6,24.15014317,120.70256733,2.44,3,15.50,22.49,314.99,17.42,21.28,19.65,79.99,97.72,90.21,2025-09-30T13:13:35.356021
24.15012433,120.70261883,1.27,5,24.15004783,120.702517,1.51,6,24.150143,120.70256733,2.44,3,16.91,22.49,314.99,17.13,22.22,19.00,78.64,102.03,87.25,2025-09-30T13:13:35.558714
24.15012433,120.70261883,1.27,5,24.15004767,120.70251683,1.51,6,24.15014267,120.7025675,2.44,3,14.10,23.90,316.40,18.01,19.02,22.17,82.69,87.33,101.81,2025-09-30T13:13:35.760953
24.15012433,120.70261833,1.27,5,24.15004767,120.70251683,1.51,6,24.15014217,120.70256733,2.44,3,19.72,23.90,314.99,16.00,24.17,16.40,73.46,111.00,75.30,2025-09-30T13:13:35.963591
24.15012433,120.70261783,1.27,5,24.15004783,120.70251683,1.51,6,24.15014217,120.70256733,2.44,3,15.50,19.68,316.40,18.95,20.68,18.46,87.00,94.98,84.78,2025-09-30T13:13:36.167088
24.1501245,120.7026175,1.27,5,24.15004783,120.70251683,1.51,6,24.15014167,120.70256717,2.44,3,16.91,23.90,316.40,15.36,22.58,15.99,70.54,103.70,73.41,2025-09-30T13:13:36.369524
24.1501245,120.70261733,1.27,5,24.15004783,120.70251667,1.51,6,24.1501405,120.70256683,2.44,3,21.13,23.90,316.40,18.53,22.37,15.31,85.07,102.74,70.31,2025-09-30T13:13:36.572330
24.15012433,120.70261667,1.27,5,24.15004783,120.70251667,1.51,6,24.1501405,120.70256683,2.44,3,15.50,25.30,316.40,16.62,20.44,22.24,76.33,93.88,102.14,2025-09-30T13:13:36.775462
24.15012433,120.7026165,1.27,5,24.15004783,120.7025165,1.51,6,24.15014017,120.70256683,2.44,3,14.10,19.68,316.40,18.42,21.39,19.88,84.56,98.22,91.30,2025-09-30T13:13:36.977934
24.15012433,120.70261617,1.27,5,24.15004783,120.70251633,1.51,6,24.15013983,120.70256683,2.44,3,12.69,22.49,317.80,15.92,20.31,17.50,73.08,93.25,80.36,2025-09-30T13:13:37.180338
24.15012433,120.70261617,1.18,6,24.15004783,120.70251617,1.51,6,24.1501395,120.70256667,2.44,3,11.28,18.27,317.80,18.98,20.58,22.17,87.17,94.50,101.82,2025-09-30T13:13:37.382879
24.15012433,120.70261583,1.18,6,24.150048,120.70251617,1.51,6,24.15013917,120.70256633,2.44,3,12.69,21.08,319.21,16.46,21.65,15.08,75.58,99.40,69.24,2025-09-30T13:13:37.585818
24.150124,120.70261533,1.18,6,24.150048,120.70251617,1.51,6,24.15013817,120.70256583,2.44,3,11.28,21.08,319.21,18.01,20.45,25.00,82.72,93.88,114.79,2025-09-30T13:13:37.788974
24.15012417,120.70261517,1.18,6,24.15004817,120.70251617,1.51,6,24.15013817,120.70256583,2.44,3,12.69,19.68,319.21,18.25,21.97,15.61,83.79,100.89,71.66,2025-09-30T13:13:37.991122
24.15012417,120.70261483,1.18,6,24.15004817,120.70251617,1.51,6,24.150137,120.7025675,2.44,3,11.28,19.68,319.21,16.60,20.21,18.23,76.22,92.78,83.70,2025-09-30T13:13:38.193663
24.15012417,120.702615,1.18,6,24.150048,120.702516,1.51,6,24.1501365,120.702568,2.44,3,12.69,19.68,319.21,17.43,22.11,20.82,80.04,101.55,95.62,2025-09-30T13:13:38.396203
24.150124,120.70261483,1.18,6,24.15004817,120.70251567,1.51,6,24.15013633,120.702568,2.44,3,8.47,16.86,319.21,18.16,19.50,19.46,83.40,89.52,89.38,2025-09-30T13:13:38.799241
24.15012417,120.70261417,1.18,6,24.15004817,120.7025155,1.51,6,24.15013633,120.70256817,2.44,3,11.28,15.46,319.21,17.79,22.61,15.92,81.70,103.80,73.12,2025-09-30T13:13:39.001761
24.15012417,120.702614,1.18,6,24.150048,120.70251567,1.51,6,24.150136,120.70256833,2.44,3,11.28,16.86,319.21,16.92,20.93,18.03,77.71,96.09,82.80,2025-09-30T13:13:39.204184
24.15012417,120.702614,1.18,6,24.15004817,120.70251567,1.51,6,24.15013567,120.70256783,2.44,3,12.69,18.27,319.21,17.18,21.22,18.98,78.89,97.43,87.15,2025-09-30T13:13:39.406508
24.15012417,120.702614,1.18,6,24.15004817,120.70251567,1.51,6,24.15013517,120.702568,2.45,3,11.28,16.86,320.61,17.54,20.90,21.93,80.55,95.95,100.69,2025-09-30T13:13:39.609243
24.1501245,120.7026135,1.18,6,24.15004817,120.70251567,1.51,6,24.15013517,120.702568,2.45,3,9.88,15.46,320.61,17.57,20.88,21.13,80.70,95.90,97.04,2025-09-30T13:13:39.811762
24.15012467,120.7026135,1.18,6,24.150048,120.70251567,1.51,6,24.15013417,120.70256817,2.45,3,9.88,18.27,320.61,17.17,20.60,18.97,78.86,94.60,87.09,2025-09-30T13:13:40.014352
24.1501245,120.70261333,1.18,6,24.15004817,120.70251567,1.51,6,24.15013383,120.70256817,2.45,3,8.47,14.05,320.61,18.77,20.95,19.81,86.18,96.19,90.97,2025-09-30T13:13:40.216481
24.15012433,120.70261367,1.18,6,24.15004817,120.70251583,1.51,6,24.15013317,120.70256833,2.45,3,9.88,16.86,322.02,16.45,21.48,18.25,75.53,98.64,83.82,2025-09-30T13:13:40.418726
24.15012417,120.70261333,1.18,6,24.15004817,120.70251567,1.51,6,24.15013283,120.70256833,2.45,3,11.28,14.05,322.02,18.25,21.42,21.04,83.82,98.36,96.63,2025-09-30T13:13:40.621797
24.15012417,120.7026135,1.27,5,24.15004817,120.70251583,1.51,6,24.15013233,120.70256867,2.45,3,14.10,14.05,323.43,17.55,21.59,15.90,80.59,99.13,73.00,2025-09-30T13:13:40.823847
24.15012417,120.70261317,1.27,5,24.15004817,120.70251583,1.51,6,24.150132,120.70256817,2.45,3,14.10,14.05,323.43,18.12,20.98,14.83,83.19,96.35,68.10,2025-09-30T13:13:41.027091
24.15012383,120.70261317,1.27,5,24.15004833,120.70251583,1.51,6,24.150132,120.70256817,2.45,3,14.10,11.24,323.43,18.77,21.01,18.94,86.21,96.46,86.99,2025-09-30T13:13:41.229162
24.15012367,120.702613,1.27,5,24.15004817,120.70251567,1.51,6,24.15013133,120.70256833,2.45,3,9.88,12.65,323.43,17.65,20.27,19.71,81.03,93.07,90.51,2025-09-30T13:13:41.431646
24.15012333,120.70261333,1.27,5,24.15004817,120.70251567,1.51,6,24.15013067,120.70256817,2.45,3,9.88,14.05,324.83,17.41,20.94,21.05,79.96,96.17,96.67,2025-09-30T13:13:41.634674
24.15012317,120.70261333,1.27,5,24.150048,120.70251567,1.51,6,24.15013017,120.7025685,2.45,3,7.06,12.65,324.83,18.00,20.85,21.01,82.67,95.74,96.47,2025-09-30T13:13:42.038116
24.15012283,120.702613,1.27,5,24.150048,120.70251567,1.51,6,24.15012967,120.70256817,2.45,3,9.88,12.65,324.83,17.84,21.25,23.98,81.94,97.57,110.12,2025-09-30T13:13:42.240947
24.15012283,120.70261333,1.27,5,24.15004783,120.70251567,1.51,6,24.15012917,120.70256817,2.45,3,9.88,11.24,323.43,18.18,21.23,25.61,83.46,97.48,117.62,2025-09-30T13:13:42.443466
24.15012283,120.702613,1.18,6,24.15004783,120.70251567,1.51,6,24.15012833,120.702568,2.45,3,8.47,12.65,323.43,17.24,20.32,23.83,79.18,93.31,109.40,2025-09-30T13:13:42.646313
24.150123,120.702613,1.18,6,24.15004767,120.7025155,1.51,6,24.1501275,120.70256833,2.45,3,8.47,11.24,324.83,17.79,21.44,17.33,81.67,98.47,79.58,2025-09-30T13:13:42.848635
24.150123,120.702613,1.18,6,24.15004767,120.70251567,1.51,6,24.1501275,120.70256833,2.45,3,8.47,12.65,324.83,17.84,20.67,8.46,81.90,94.92,38.84,2025-09-30T13:13:43.051830
24.1501235,120.70261233,1.18,6,24.1500475,120.7025155,1.51,6,24.1501265,120.70256817,2.45,3,11.28,11.24,324.83,18.04,20.25,23.62,82.81,93.00,108.44,2025-09-30T13:13:43.254807
24.15012333,120.70261233,1.18,6,24.1500475,120.7025155,1.51,6,24.150126,120.70256833,2.45,3,9.88,14.05,323.43,17.28,20.53,25.27,79.37,94.26,116.03,2025-09-30T13:13:43.458887
24.15012333,120.70261233,1.18,6,24.15004733,120.70251533,1.51,6,24.1501255,120.70256817,2.45,3,12.69,11.24,323.43,18.58,22.05,16.78,85.30,101.23,77.06,2025-09-30T13:13:43.662383
24.1501235,120.70261217,1.18,6,24.15004717,120.70251533,1.51,6,24.1501255,120.70256817,2.45,3,11.28,12.65,323.43,17.90,21.38,16.52,82.20,98.16,75.87,2025-09-30T13:13:43.865491
24.15012367,120.702612,1.18,6,24.150047,120.70251533,1.51,6,24.150125,120.70256817,2.45,3,2.85,12.65,322.02,17.58,20.39,21.90,80.74,93.65,100.54,2025-09-30T13:13:44.068051
24.150124,120.702612,1.18,6,24.150047,120.70251533,1.51,6,24.15012433,120.70256833,2.45,3,347.38,18.26,306.55,17.56,22.14,22.55,80.63,101.66,103.54,2025-09-30T13:13:44.271197
24.15012417,120.7026115,1.46,5,24.150047,120.70251533,1.51,6,24.1501235,120.70256817,2.45,3,326.28,26.70,279.83,16.68,20.92,17.65,76.59,96.07,81.07,2025-09-30T13:13:44.474717
24.15012433,120.7026115,1.46,5,24.150047,120.7025155,1.51,6,24.150123,120.70256817,2.45,3,323.47,25.30,261.55,17.57,21.67,21.82,80.67,99.49,100.21,2025-09-30T13:13:44.677140
24.1501245,120.70261117,1.46,5,24.15004683,120.70251583,1.51,6,24.150123,120.70256817,2.45,3,317.85,26.70,251.71,18.00,21.18,16.67,82.64,97.25,76.53,2025-09-30T13:13:44.879415
24.15012483,120.702611,1.46,5,24.150047,120.70251567,1.51,6,24.150122,120.702568,2.45,3,312.22,26.70,247.49,18.32,20.51,15.88,84.12,94.19,72.93,2025-09-30T13:13:45.082133
24.15012517,120.70261033,1.46,5,24.150047,120.70251583,1.51,6,24.1501215,120.702568,2.45,3,303.78,26.70,240.46,17.51,20.83,15.33,80.38,95.63,70.40,2025-09-30T13:13:45.285711
24.1501255,120.7026105,1.46,5,24.150047,120.70251617,1.51,6,24.15012117,120.70256767,2.45,3,298.16,25.30,232.02,17.93,20.77,14.20,82.33,95.39,65.19,2025-09-30T13:13:45.488035
24.1501255,120.7026105,1.46,5,24.150047,120.70251617,1.51,6,24.1501205,120.70256783,2.45,3,285.50,30.92,226.40,16.66,19.48,20.91,76.51,89.47,96.03,2025-09-30T13:13:45.691355
24.1501255,120.70261017,1.46,5,24.150047,120.70251617,1.51,6,24.15012033,120.70256767,2.45,3,326.28,21.08,229.21,19.34,22.20,19.11,88.80,101.94,87.75,2025-09-30T13:13:45.894583
24.15012567,120.70261017,1.46,5,24.15004683,120.70251633,1.51,6,24.1501195,120.70256767,2.45,3,2.85,25.30,239.05,15.66,20.37,19.23,71.92,93.52,88.32,2025-09-30T13:13:46.097010
24.150126,120.70260983,1.46,5,24.15004683,120.70251617,1.51,6,24.15011917,120.7025675,2.45,3,33.78,18.27,248.90,18.81,21.81,14.32,86.35,100.15,65.76,2025-09-30T13:13:46.499727
24.15012617,120.70260967,1.46,5,24.1500465,120.70251617,1.51,6,24.150118,120.70256733,2.45,3,77.38,11.24,275.61,16.17,20.71,19.24,74.24,95.11,88.35,2025-09-30T13:13:46.702868
24.15012617,120.70260967,1.18,6,24.1500465,120.70251617,1.51,6,24.15011767,120.70256733,2.45,3,125.19,355.77,323.42,17.83,22.00,14.06,81.88,101.03,64.55,2025-09-30T13:13:47.105380
24.15012617,120.70260933,1.18,6,24.15004617,120.702516,1.51,6,24.15011717,120.70256733,2.45,3,168.78,340.30,32.33,16.73,20.12,19.11,76.83,92.38,87.75,2025-09-30T13:13:47.308725
24.15012617,120.70260933,1.27,5,24.150046,120.70251583,1.51,6,24.15011717,120.70256733,2.45,3,212.38,323.43,95.61,19.70,22.57,13.22,90.44,103.66,60.70,2025-09-30T13:13:47.511180
24.15012617,120.70260883,1.27,5,24.15004633,120.702516,1.51,6,24.150117,120.70256733,2.45,3,239.10,313.58,160.30,16.64,20.23,24.06,76.41,92.88,110.47,2025-09-30T13:13:47.713229
24.15012617,120.70260883,1.27,5,24.15004633,120.70251583,1.51,6,24.1501165,120.70256733,2.45,3,265.81,303.74,233.42,18.37,21.64,17.01,84.37,99.38,78.12,2025-09-30T13:13:47.915437
24.15012617,120.70260867,1.27,5,24.1500465,120.70251567,1.51,6,24.1501165,120.70256783,2.45,3,275.66,300.93,296.70,16.32,21.19,14.20,74.94,97.30,65.19,2025-09-30T13:13:48.117830
24.15012583,120.7026085,1.27,5,24.15004667,120.70251567,1.51,6,24.15011583,120.70256833,2.45,3,278.47,295.30,350.14,17.98,21.24,13.74,82.55,97.53,63.09,2025-09-30T13:13:48.320476
24.15012583,120.7026085,1.27,5,24.15004667,120.7025155,1.51,6,24.1501165,120.70256817,2.45,3,247.53,312.18,4.20,16.09,20.51,13.78,73.86,94.18,63.28,2025-09-30T13:13:48.522803
24.15012567,120.7026085,1.27,5,24.150047,120.7025155,1.51,6,24.15011683,120.702568,2.45,3,212.38,320.61,11.23,18.35,21.92,16.26,84.24,100.63,74.67,2025-09-30T13:13:48.725341
24.15012567,120.70260817,1.27,5,24.150047,120.7025155,1.51,6,24.150117,120.702568,2.45,3,185.66,334.68,22.48,15.97,20.62,19.00,73.34,94.66,87.26,2025-09-30T13:13:48.927374
24.1501255,120.70260833,1.7,4,24.150047,120.7025155,1.51,6,24.150117,120.702568,2.45,3,168.78,338.90,30.92,17.21,21.33,16.29,79.02,97.96,74.81,2025-09-30T13:13:49.129488
24.1501255,120.702608,1.7,4,24.15004717,120.70251567,1.51,6,24.150117,120.702568,2.45,3,153.31,345.93,39.36,16.04,20.33,14.30,73.64,93.34,65.65,2025-09-30T13:13:49.332554
24.15012533,120.702608,1.7,4,24.15004717,120.7025155,1.51,6,24.15011717,120.7025685,2.45,3,146.28,348.74,47.80,19.60,20.95,25.12,89.98,96.19,115.36,2025-09-30T13:13:49.535207
24.15012533,120.70260817,1.7,4,24.15004717,120.7025155,1.51,6,24.15011717,120.70256817,2.45,3,146.28,350.15,57.64,19.63,22.06,20.51,90.13,101.28,94.16,2025-09-30T13:13:49.737554
24.150125,120.70260767,1.7,4,24.15004717,120.70251533,1.51,6,24.150117,120.70256833,2.45,3,139.25,345.93,66.08,24.04,20.90,23.23,110.40,95.98,106.65,2025-09-30T13:13:49.939807
24.150125,120.70260783,1.7,4,24.15004733,120.70251517,1.51,6,24.1501165,120.70256833,2.45,3,136.44,352.96,75.92,16.71,22.20,17.85,76.71,101.96,81.98,2025-09-30T13:13:50.142414
24.15012517,120.70260783,1.18,6,24.15004733,120.70251533,1.51,6,24.15011633,120.7025685,2.45,3,109.72,358.58,80.14,17.38,21.13,16.59,79.83,97.01,76.20,2025-09-30T13:13:50.345322
24.15012533,120.7026075,1.18,6,24.15004733,120.70251533,1.51,6,24.15011583,120.70256833,2.45,3,80.19,9.83,81.55,15.71,20.00,19.68,72.15,91.84,90.36,2025-09-30T13:13:50.547841
24.15012567,120.70260733,1.18,6,24.1500475,120.70251533,1.51,6,24.15011533,120.70256783,2.45,3,64.72,9.83,81.55,18.26,21.76,18.01,83.82,99.90,82.69,2025-09-30T13:13:50.750498
24.15012567,120.70260733,1.18,6,24.15004767,120.70251567,1.51,6,24.15011533,120.70256783,2.45,3,53.47,15.46,84.36,16.48,21.59,20.17,75.66,99.14,92.59,2025-09-30T13:13:50.953408
24.15012567,120.70260733,1.18,6,24.15004783,120.70251583,1.51,6,24.15011533,120.702568,2.45,3,42.22,18.27,85.77,16.94,21.46,20.97,77.79,98.53,96.29,2025-09-30T13:13:51.155950
24.150126,120.702607,1.18,6,24.150048,120.70251583,1.51,6,24.15011567,120.70256767,2.45,3,32.38,16.86,85.77,17.62,21.04,16.58,80.91,96.63,76.12,2025-09-30T13:13:51.358476
24.15012617,120.702607,1.18,6,24.15004817,120.702516,1.51,6,24.1501155,120.70256733,2.45,3,26.75,21.08,87.18,16.56,21.28,17.54,76.03,97.74,80.52,2025-09-30T13:13:51.560729
24.15012633,120.70260667,1.18,6,24.15004833,120.702516,1.51,6,24.15011617,120.70256767,2.45,3,246.13,347.33,94.20,17.88,24.39,14.68,82.11,112.00,67.41,2025-09-30T13:13:51.764006
24.15012617,120.70260667,1.18,6,24.1500485,120.70251583,1.51,6,24.15011617,120.702568,2.45,3,11.28,21.08,87.18,15.60,15.38,22.04,71.61,70.61,101.19,2025-09-30T13:13:51.966542
24.1501265,120.70260667,1.18,6,24.15004883,120.70251617,1.51,6,24.1501165,120.70256817,2.45,3,32.38,32.33,85.77,21.32,17.63,16.47,97.91,80.93,75.63,2025-09-30T13:13:52.170777
24.1501265,120.70260667,1.18,6,24.15004883,120.70251583,1.51,6,24.15011667,120.70256833,2.45,3,33.78,30.93,85.77,17.66,22.16,16.18,81.11,101.78,74.27,2025-09-30T13:13:52.373548
24.15012633,120.7026065,1.18,6,24.15004917,120.70251583,1.51,6,24.15011667,120.7025685,2.45,3,25.35,25.30,88.58,17.91,21.17,20.07,82.25,97.22,92.14,2025-09-30T13:13:52.577268
24.15012667,120.70260667,1.18,6,24.15004967,120.70251567,1.51,6,24.1501165,120.7025685,2.45,3,23.94,19.68,88.58,19.12,21.11,19.61,87.78,96.94,90.03,2025-09-30T13:13:52.779873
24.15012667,120.7026065,1.18,6,24.15005,120.70251567,1.51,6,24.15011617,120.70256883,2.45,3,19.72,18.27,89.99,16.99,21.18,17.36,78.03,97.26,79.74,2025-09-30T13:13:52.983281
24.15012667,120.70260667,1.18,6,24.15005017,120.70251567,1.51,6,24.15011617,120.70256883,2.45,3,18.31,21.08,89.99,16.32,21.91,20.43,74.96,100.62,93.82,2025-09-30T13:13:53.185811
24.15012683,120.70260633,1.18,6,24.15005017,120.70251567,1.51,6,24.15011583,120.70256867,2.45,3,16.91,21.08,89.99,17.40,21.78,21.78,79.89,100.00,100.00,2025-09-30T13:13:53.389046
24.15012717,120.70260617,1.18,6,24.15005033,120.70251567,1.51,6,24.1501155,120.70256883,2.45,3,18.31,21.08,89.99,17.29,22.71,20.74,79.41,104.29,95.24,2025-09-30T13:13:53.591566
24.1501275,120.70260617,1.18,6,24.15005033,120.70251533,1.51,6,24.1501155,120.70256883,2.45,3,18.31,21.08,91.40,16.79,21.45,20.38,77.09,98.52,93.59,2025-09-30T13:13:53.794667
24.15012717,120.702606,1.18,6,24.1500505,120.70251533,1.51,6,24.15011517,120.70256883,2.45,3,21.13,23.90,92.80,16.77,21.96,18.79,77.02,100.82,86.26,2025-09-30T13:13:53.996732
24.1501275,120.70260583,1.18,6,24.1500505,120.70251517,1.51,6,24.15011467,120.7025685,2.45,3,18.31,22.49,92.80,17.36,21.38,20.84,79.73,98.16,95.69,2025-09-30T13:13:54.199705
24.15012733,120.70260583,1.18,6,24.15005067,120.702515,1.51,6,24.15011333,120.70256817,2.45,3,18.31,22.49,92.80,16.93,21.34,20.94,77.76,98.01,96.15,2025-09-30T13:13:54.402141
24.15012783,120.7026055,1.18,6,24.15005083,120.70251467,1.51,6,24.15011267,120.70256817,2.45,3,19.72,21.08,94.21,17.27,22.06,20.69,79.28,101.30,95.00,2025-09-30T13:13:54.604659
24.150128,120.70260533,1.18,6,24.150051,120.7025145,1.51,6,24.15011267,120.70256817,2.45,3,19.72,22.49,94.21,16.70,21.90,15.84,76.69,100.58,72.75,2025-09-30T13:13:54.807338
24.15012783,120.702605,1.18,6,24.15005133,120.70251467,1.51,6,24.1501115,120.702568,2.45,3,18.31,23.90,94.21,16.41,21.66,16.10,75.36,99.47,73.93,2025-09-30T13:13:55.009825
24.15012833,120.70260467,1.18,6,24.1500515,120.70251467,1.51,6,24.150111,120.70256767,2.45,3,18.31,19.68,95.61,18.74,22.00,23.07,86.07,101.04,105.96,2025-09-30T13:13:55.212490
24.15012833,120.7026045,1.18,6,24.15005183,120.70251467,1.51,6,24.150111,120.70256767,2.45,3,18.31,21.08,97.02,16.39,25.11,7.20,75.27,115.32,33.04,2025-09-30T13:13:55.415551
24.15012867,120.702604,1.18,6,24.15005183,120.70251433,1.51,6,24.150111,120.70256783,2.45,3,18.31,22.49,97.02,16.76,21.76,16.82,76.96,99.94,77.22,2025-09-30T13:13:55.617947
24.15012883,120.70260383,1.18,6,24.15005217,120.70251433,1.51,6,24.15011,120.70256733,2.45,3,18.31,18.27,97.02,18.10,21.96,21.94,83.10,100.82,100.76,2025-09-30T13:13:55.820472
24.1501285,120.70260367,1.18,6,24.15005233,120.70251417,1.51,6,24.15010917,120.7025665,2.45,3,15.50,21.08,97.02,16.26,21.09,16.23,74.68,96.84,74.51,2025-09-30T13:13:56.022692
24.15012867,120.7026035,1.18,6,24.15005267,120.70251417,1.51,6,24.15010917,120.7025665,2.45,3,18.31,22.49,98.43,16.96,22.17,20.59,77.86,101.80,94.56,2025-09-30T13:13:56.225636
24.15012867,120.70260317,1.18,6,24.150053,120.70251433,1.51,6,24.15010917,120.702566,2.45,3,19.72,18.27,98.43,18.36,22.17,17.26,84.30,101.81,79.27,2025-09-30T13:13:56.429194
24.15012883,120.702603,1.18,6,24.15005317,120.70251433,1.51,6,24.15011033,120.70256917,2.45,3,22.53,25.30,99.83,14.85,20.70,22.07,68.20,95.07,101.32,2025-09-30T13:13:56.631713
24.15012917,120.70260283,1.18,6,24.15005333,120.70251417,1.51,6,24.15011033,120.70256917,2.45,3,25.35,16.86,98.43,19.13,22.48,17.39,87.82,103.24,79.84,2025-09-30T13:13:56.834229
24.150129,120.70260233,1.18,6,24.15005333,120.70251417,1.51,6,24.15011117,120.7025705,2.45,3,23.94,18.27,98.43,17.33,20.92,21.64,79.58,96.05,99.34,2025-09-30T13:13:57.036747
24.150129,120.70260233,1.18,6,24.1500535,120.70251417,1.51,6,24.1501105,120.70256817,2.45,3,4.25,39.36,91.40,23.77,23.35,19.46,109.13,107.22,89.37,2025-09-30T13:13:57.239263
24.15012883,120.70260217,1.18,6,24.1500535,120.702514,1.51,6,24.1501105,120.70256817,2.45,3,12.69,8.43,89.99,20.78,21.52,23.13,95.42,98.82,106.20,2025-09-30T13:13:57.441811
24.150129,120.702602,1.18,6,24.1500535,120.702514,1.51,6,24.15011067,120.70256817,2.45,3,0.03,18.27,88.58,18.85,20.10,17.85,86.55,92.28,81.96,2025-09-30T13:13:57.644940
24.150129,120.702602,1.18,6,24.1500535,120.70251383,1.51,6,24.15011083,120.702569,2.45,3,333.31,36.55,66.08,17.46,21.41,20.81,80.17,98.30,95.56,2025-09-30T13:13:57.848067
24.15012917,120.70260183,1.18,6,24.1500535,120.70251383,1.51,6,24.15011083,120.702569,2.45,3,323.47,22.48,39.36,22.39,24.16,18.33,102.80,110.96,84.19,2025-09-30T13:13:58.050491
24.15012883,120.70260167,1.18,6,24.15005333,120.70251367,1.51,6,24.15011183,120.70257017,2.45,3,316.44,26.70,26.71,16.30,19.64,14.70,74.85,90.21,67.49,2025-09-30T13:13:58.252867
24.15012883,120.7026015,1.18,6,24.15005333,120.702514,1.51,6,24.15011217,120.70257067,2.45,3,289.72,36.55,16.86,20.52,19.92,22.65,94.20,91.49,104.01,2025-09-30T13:13:58.455384
24.15012883,120.7026015,1.18,6,24.1500535,120.70251417,1.51,6,24.150113,120.70257133,2.45,3,305.19,22.48,15.46,19.17,23.01,20.32,88.04,105.67,93.30,2025-09-30T13:13:58.657767
24.15012883,120.70260133,1.18,6,24.15005367,120.702514,1.51,6,24.150114,120.7025725,2.45,3,12.69,14.05,77.33,15.86,20.06,18.62,72.82,92.11,85.52,2025-09-30T13:13:58.860283
24.15012883,120.70260133,1.18,6,24.1500535,120.702514,1.51,6,24.150114,120.7025725,2.45,3,57.69,354.36,156.08,18.67,22.45,17.13,85.72,103.10,78.65,2025-09-30T13:13:59.062801
24.15012867,120.70260133,1.18,6,24.1500535,120.70251383,1.51,6,24.1501145,120.70257283,2.45,3,95.66,329.05,234.83,19.08,21.34,21.59,87.62,97.99,99.15,2025-09-30T13:13:59.264832
24.1501285,120.70260117,1.18,6,24.15005367,120.70251367,1.51,6,24.1501155,120.70257417,2.45,3,115.35,334.68,288.26,15.67,20.73,15.39,71.95,95.21,70.67,2025-09-30T13:13:59.467348
24.1501285,120.702601,1.18,6,24.1500535,120.7025135,1.51,6,24.1501155,120.70257467,2.45,3,132.22,324.83,358.58,18.79,22.35,16.87,86.27,102.61,77.45,2025-09-30T13:13:59.672534
24.1501285,120.70260117,1.18,6,24.15005367,120.7025135,1.51,6,24.1501155,120.70257467,2.45,3,128.00,326.24,49.20,17.48,22.17,13.79,80.27,101.81,63.32,2025-09-30T13:13:59.878188
24.15012817,120.70260133,1.18,6,24.15005367,120.7025135,1.51,6,24.15011633,120.70257517,2.45,3,94.25,341.71,50.61,17.23,20.73,17.56,79.13,95.19,80.62,2025-09-30T13:14:00.081017
24.15012817,120.70260133,1.18,6,24.1500545,120.7025135,1.51,6,24.15011683,120.70257483,2.45,3,74.56,341.71,52.01,19.98,21.65,22.52,91.75,99.42,103.40,2025-09-30T13:14:00.285387
24.150128,120.7026015,1.18,6,24.15005483,120.7025135,1.51,6,24.15011683,120.702575,2.45,3,50.66,351.55,53.42,16.89,20.55,17.23,77.57,94.36,79.10,2025-09-30T13:14:00.488380
24.150128,120.70260167,1.18,6,24.1500555,120.70251367,1.51,6,24.150118,120.702575,2.45,3,38.00,359.99,56.23,16.76,20.18,19.53,76.96,92.68,89.68,2025-09-30T13:14:00.691995
24.150128,120.70260167,1.18,6,24.15005617,120.70251383,1.51,6,24.15011817,120.70257483,2.45,3,30.97,359.99,56.23,18.58,21.94,18.36,85.32,100.73,84.31,2025-09-30T13:14:00.896525
24.15012817,120.70260167,1.18,6,24.15005633,120.70251367,1.51,6,24.1501175,120.70257467,2.45,3,29.56,5.61,57.65,23.41,24.52,19.81,107.51,112.60,90.97,2025-09-30T13:14:01.100477
24.1501275,120.702602,1.18,6,24.15005667,120.70251383,1.51,6,24.150118,120.70257417,2.45,3,95.66,352.96,54.83,16.97,19.85,19.33,77.94,91.15,88.77,2025-09-30T13:14:01.304184
24.15012733,120.70260233,1.18,6,24.15005683,120.70251367,1.51,6,24.150118,120.70257383,2.45,3,60.50,354.36,57.64,17.47,18.00,19.97,80.24,82.64,91.69,2025-09-30T13:14:01.507095
24.15012717,120.70260283,1.18,6,24.15005733,120.702514,1.51,6,24.150118,120.702573,2.45,3,45.03,336.08,61.86,23.90,14.88,14.68,109.75,68.34,67.43,2025-09-30T13:14:01.711191
24.15012633,120.70260333,1.18,6,24.1500575,120.70251433,1.51,6,24.15011883,120.70257233,2.45,3,42.22,359.99,63.26,17.40,13.68,20.85,79.91,62.82,95.76,2025-09-30T13:14:02.114779
24.15012617,120.70260367,1.18,6,24.15005767,120.70251433,1.51,6,24.15011883,120.70257233,2.45,3,70.35,333.27,61.86,17.91,16.13,18.87,82.23,74.08,86.63,2025-09-30T13:14:02.317085
24.15012583,120.70260383,1.18,6,24.15005783,120.7025145,1.51,6,24.15011933,120.70257267,2.45,3,66.13,347.33,63.26,17.42,16.53,17.49,80.00,75.91,80.29,2025-09-30T13:14:02.520911
24.150126,120.70260383,1.18,6,24.15005817,120.70251483,1.51,6,24.15011883,120.70257267,2.45,3,56.28,341.71,64.67,22.10,20.00,24.75,101.49,91.85,113.65,2025-09-30T13:14:02.724613
24.1501255,120.702604,1.18,6,24.15005817,120.70251467,1.51,6,24.150119,120.702572,2.45,3,52.06,319.21,64.67,18.59,24.31,20.60,85.38,111.62,94.60,2025-09-30T13:14:02.927804
24.15012517,120.702604,1.18,6,24.15005833,120.70251483,1.51,6,24.1501195,120.70257117,2.45,3,52.06,350.15,66.08,14.36,22.85,19.92,65.95,104.91,91.46,2025-09-30T13:14:03.131037
24.15012467,120.7026045,1.18,6,24.15005833,120.70251483,1.51,6,24.15011967,120.70257033,2.45,3,66.13,333.27,64.67,23.83,25.75,18.31,109.41,118.22,84.06,2025-09-30T13:14:03.334487
24.15012433,120.70260467,1.18,6,24.1500585,120.702515,1.51,6,24.1501205,120.7025665,2.45,3,53.47,352.96,66.08,12.17,20.59,15.84,55.90,94.54,72.76,2025-09-30T13:14:03.537834
24.15012417,120.70260533,1.18,6,24.15005883,120.70251567,1.51,6,24.1501205,120.7025665,2.45,3,63.31,343.11,66.08,20.62,28.32,16.27,94.68,130.06,74.73,2025-09-30T13:14:03.739959
24.15012383,120.70260633,1.18,6,24.15005883,120.70251617,1.51,6,24.15011983,120.70256633,2.45,3,59.10,317.80,67.48,24.18,23.40,16.88,111.05,107.46,77.51,2025-09-30T13:14:03.943169
24.15012333,120.70260717,1.18,6,24.15005867,120.70251667,1.51,6,24.1501195,120.70256633,2.45,3,42.22,347.33,75.92,20.60,18.88,19.60,94.60,86.69,90.02,2025-09-30T13:14:04.146198
24.15012317,120.7026085,1.18,6,24.15005767,120.70251733,1.51,6,24.15011983,120.7025675,2.45,3,46.44,351.55,75.92,20.44,19.77,18.91,93.87,90.78,86.84,2025-09-30T13:14:04.349619
24.15012333,120.70260967,1.27,5,24.150058,120.70251817,1.51,6,24.15011983,120.7025695,2.45,3,43.63,352.96,75.92,19.76,20.27,21.59,90.75,93.07,99.14,2025-09-30T13:14:04.552872
24.150123,120.70261083,1.27,5,24.15005817,120.70251967,1.51,6,24.15011983,120.7025695,2.45,3,33.78,7.02,77.33,17.61,20.74,17.38,80.86,95.22,79.82,2025-09-30T13:14:04.755767
24.15012317,120.702612,1.27,5,24.15005767,120.702521,1.51,6,24.1501195,120.70257267,2.45,3,43.63,330.46,77.33,15.55,25.59,22.28,71.39,117.50,102.29,2025-09-30T13:14:04.959741
24.150123,120.702613,1.27,5,24.15005783,120.702522,1.51,6,24.15011833,120.70257433,2.45,3,30.97,18.27,78.74,15.34,21.06,16.39,70.46,96.68,75.26,2025-09-30T13:14:05.163293
24.15012217,120.70261417,1.27,5,24.15005617,120.70252133,1.51,6,24.15011833,120.70257633,2.45,3,42.22,347.33,77.33,25.88,23.18,23.03,118.85,106.46,105.73,2025-09-30T13:14:05.365538
24.15012183,120.7026155,1.18,6,24.15005483,120.70252167,1.51,6,24.1501175,120.7025775,2.45,3,45.03,351.55,78.73,22.67,24.36,18.53,104.08,111.88,85.09,2025-09-30T13:14:05.568741
24.1501225,120.7026165,1.18,6,24.15005517,120.70252267,1.51,6,24.1501155,120.70257833,2.45,3,42.22,5.61,78.74,16.10,23.20,18.13,73.91,106.53,83.25,2025-09-30T13:14:05.771260
24.1501225,120.70261783,1.18,6,24.150054,120.70252283,1.51,6,24.150116,120.7025795,2.45,3,54.88,352.96,78.73,22.36,27.39,21.01,102.69,125.78,96.46,2025-09-30T13:14:05.974887
24.15012233,120.70261933,1.18,6,24.1500535,120.702524,1.51,6,24.150116,120.7025795,2.45,3,43.63,4.21,78.74,16.22,21.25,18.61,74.48,97.58,85.44,2025-09-30T13:14:06.176956
24.15012233,120.70262067,1.18,6,24.150053,120.702524,1.51,6,24.1501155,120.70258183,2.45,3,46.44,359.99,80.14,19.94,24.39,18.24,91.58,111.98,83.75,2025-09-30T13:14:06.380617
24.150122,120.70262217,1.18,6,24.15005183,120.70252417,1.51,6,24.15011667,120.702585,2.46,3,47.85,358.58,80.14,19.05,25.20,17.27,87.47,115.73,79.29,2025-09-30T13:14:06.584162
24.150122,120.70262217,1.18,6,24.1500525,120.70252583,1.51,6,24.15011667,120.702585,2.46,3,46.44,8.43,81.55,16.10,23.33,17.87,73.91,107.13,82.06,2025-09-30T13:14:06.786683
24.15012267,120.70262383,1.18,6,24.15005333,120.70252783,1.51,6,24.15011833,120.70258733,2.46,3,54.88,354.36,81.55,23.16,26.29,18.28,106.33,120.71,83.92,2025-09-30T13:14:06.989731
24.15012267,120.7026245,1.18,6,24.15005283,120.70252867,1.51,6,24.1501225,120.702591,2.46,3,47.85,1.40,82.96,16.65,22.08,18.72,76.47,101.40,85.98,2025-09-30T13:14:07.192872
